[{"numberOfFlights":10,"cityPair":{"origin":{"code":"DFW","name":"Dallas Ft. Worth International","latitude":0,"longitude":0,"address":null},"destination":{"code":"MIA","name":"Miami Intl","latitude":25.79325,"longitude":-80.290556,"address":{"city":"Miami","state":"FL"}}},"totalSeats":600,"available":50},{"numberOfFlights":10,"cityPair":{"origin":{"code":"DFW","name":"Dallas Ft. Worth International","latitude":0,"longitude":0,"address":null},"destination":{"code":"LAX","name":"Los Angeles Intl","latitude":33.942536,"longitude":-118.408075,"address":{"city":"Los Angeles","state":"CA"}}},"totalSeats":600,"available":50},{"numberOfFlights":10,"cityPair":{"origin":{"code":"DFW","name":"Dallas Ft. Worth International","latitude":0,"longitude":0,"address":null},"destination":{"code":"CUN","name":"Cancun Intl","latitude":21.036528,"longitude":-86.877083,"address":{"city":"Cancun","state":"Quintana Roo"}}},"totalSeats":600,"available":50},{"numberOfFlights":10,"cityPair":{"origin":{"code":"DFW","name":"Dallas Ft. Worth International","latitude":0,"longitude":0,"address":null},"destination":{"code":"SJC","name":"San Jose Intl","latitude":37.3626,"longitude":-121.929022,"address":{"city":"San Jose","state":"CA"}}},"totalSeats":600,"available":50},{"numberOfFlights":10,"cityPair":{"origin":{"code":"DFW","name":"Dallas Ft. Worth International","latitude":0,"longitude":0,"address":null},"destination":{"code":"SAN","name":"San Diego Intl","latitude":32.5722722,"longitude":-116.9801611,"address":{"city":"San Diego","state":"CA"}}},"totalSeats":600,"available":50}]