[{"numberOfFlights":10,"cityPair":{"origin":{"code":"DFW","name":"Dallas Ft. Worth International","latitude":0,"longitude":0,"address":null},"destination":{"code":"SFO","name":"San Francisco Intl","latitude":37.618972,"longitude":-122.374889,"address":{"city":"San Francisco","state":"CA"}}},"seats":6,"lowestFare":487},{"numberOfFlights":10,"cityPair":{"origin":{"code":"DFW","name":"Dallas Ft. Worth International","latitude":0,"longitude":0,"address":null},"destination":{"code":"SAF","name":"Santa Fe Municipal","latitude":35.617108,"longitude":-106.089422,"address":{"city":"Santa Fe","state":"NM"}}},"seats":3,"lowestFare":430},{"numberOfFlights":10,"cityPair":{"origin":{"code":"DFW","name":"Dallas Ft. Worth International","latitude":0,"longitude":0,"address":null},"destination":{"code":"MSY","name":"New Orleans","latitude":29.9933,"longitude":-90.2581,"address":{"city":"New Orleans","state":"LA"}}},"seats":6,"lowestFare":300},{"numberOfFlights":10,"cityPair":{"origin":{"code":"DFW","name":"Dallas Ft. Worth International","latitude":0,"longitude":0,"address":null},"destination":{"code":"LGA","name":"La Guardia","latitude":40.777245,"longitude":-73.872608,"address":{"city":"New York","state":"NY"}}},"seats":600,"lowestFare":445}] 